{
  "lane_types": [
    {"code": "standard_vehicle", "name_en": "Standard Vehicles", "name_es": "Vehiculos Estandar"},
    {"code": "sentri", "name_en": "SENTRI", "name_es": "SENTRI"},
    {"code": "ready_lane", "name_en": "Ready Lane", "name_es": "Ready Lane"},
    {"code": "pedestrian", "name_en": "Pedestrian", "name_es": "Peatonal"},
    {"code": "pedestrian_ready", "name_en": "Pedestrian Ready Lane", "name_es": "Peatonal Ready Lane"},
    {"code": "commercial", "name_en": "Commercial / Trucks", "name_es": "Comercial / Camiones"}
  ],
  "port_id_migrations": {
    "_comment": "Maps old cbp_port_id to new cbp_port_id for existing ports that had wrong IDs",
    "250201": "250501",
    "250501": "250201",
    "260301": "260101",
    "260101": "260801",
    "240101": "240201",
    "240102": "202401",
    "240103": "240203",
    "230601": "230404",
    "230201": "230103",
    "230401": "230501",
    "230301": "535501",
    "230302": "535504",
    "230501": "230301",
    "230101": "230201",
    "230701": "240301"
  },
  "ports": [
    {
      "cbp_port_id": "250401",
      "name_en": "San Ysidro",
      "name_es": "San Ysidro",
      "city_us": "San Diego",
      "city_mx": "Tijuana",
      "state_us": "CA",
      "state_mx": "Baja California",
      "latitude": 32.5422,
      "longitude": -117.0292,
      "crossing_type": "land",
      "timezone": "America/Tijuana"
    },
    {
      "cbp_port_id": "250601",
      "name_en": "Otay Mesa",
      "name_es": "Otay Mesa",
      "city_us": "San Diego",
      "city_mx": "Tijuana",
      "state_us": "CA",
      "state_mx": "Baja California",
      "latitude": 32.5521,
      "longitude": -116.9389,
      "crossing_type": "land",
      "timezone": "America/Tijuana"
    },
    {
      "cbp_port_id": "250608",
      "name_en": "Otay Mesa East",
      "name_es": "Otay Mesa Este",
      "city_us": "San Diego",
      "city_mx": "Tijuana",
      "state_us": "CA",
      "state_mx": "Baja California",
      "latitude": 32.5437,
      "longitude": -116.9287,
      "crossing_type": "land",
      "timezone": "America/Tijuana"
    },
    {
      "cbp_port_id": "250301",
      "name_en": "Calexico West",
      "name_es": "Calexico Oeste",
      "city_us": "Calexico",
      "city_mx": "Mexicali",
      "state_us": "CA",
      "state_mx": "Baja California",
      "latitude": 32.6654,
      "longitude": -115.4988,
      "crossing_type": "land",
      "timezone": "America/Tijuana"
    },
    {
      "cbp_port_id": "250302",
      "name_en": "Calexico East",
      "name_es": "Calexico Este",
      "city_us": "Calexico",
      "city_mx": "Mexicali",
      "state_us": "CA",
      "state_mx": "Baja California",
      "latitude": 32.6720,
      "longitude": -115.4170,
      "crossing_type": "land",
      "timezone": "America/Tijuana"
    },
    {
      "cbp_port_id": "250501",
      "name_en": "Tecate",
      "name_es": "Tecate",
      "city_us": "Tecate",
      "city_mx": "Tecate",
      "state_us": "CA",
      "state_mx": "Baja California",
      "latitude": 32.5729,
      "longitude": -116.6266,
      "crossing_type": "land",
      "timezone": "America/Tijuana"
    },
    {
      "cbp_port_id": "250201",
      "name_en": "Andrade",
      "name_es": "Andrade",
      "city_us": "Andrade",
      "city_mx": "Los Algodones",
      "state_us": "CA",
      "state_mx": "Baja California",
      "latitude": 32.7193,
      "longitude": -114.7267,
      "crossing_type": "land",
      "timezone": "America/Tijuana"
    },
    {
      "cbp_port_id": "250101",
      "name_en": "Cross Border Xpress (CBX)",
      "name_es": "Cross Border Xpress (CBX)",
      "city_us": "San Diego",
      "city_mx": "Tijuana",
      "state_us": "CA",
      "state_mx": "Baja California",
      "latitude": 32.5412,
      "longitude": -116.9804,
      "crossing_type": "pedestrian_bridge",
      "timezone": "America/Tijuana"
    },
    {
      "cbp_port_id": "260401",
      "name_en": "Nogales DeConcini",
      "name_es": "Nogales DeConcini",
      "city_us": "Nogales",
      "city_mx": "Nogales",
      "state_us": "AZ",
      "state_mx": "Sonora",
      "latitude": 31.3325,
      "longitude": -110.9420,
      "crossing_type": "land",
      "timezone": "America/Phoenix"
    },
    {
      "cbp_port_id": "260402",
      "name_en": "Nogales Mariposa",
      "name_es": "Nogales Mariposa",
      "city_us": "Nogales",
      "city_mx": "Nogales",
      "state_us": "AZ",
      "state_mx": "Sonora",
      "latitude": 31.3505,
      "longitude": -110.9693,
      "crossing_type": "land",
      "timezone": "America/Phoenix"
    },
    {
      "cbp_port_id": "260403",
      "name_en": "Nogales Grand Avenue",
      "name_es": "Nogales Grand Avenue",
      "city_us": "Nogales",
      "city_mx": "Nogales",
      "state_us": "AZ",
      "state_mx": "Sonora",
      "latitude": 31.3342,
      "longitude": -110.9429,
      "crossing_type": "land",
      "timezone": "America/Phoenix"
    },
    {
      "cbp_port_id": "260101",
      "name_en": "Douglas",
      "name_es": "Douglas",
      "city_us": "Douglas",
      "city_mx": "Agua Prieta",
      "state_us": "AZ",
      "state_mx": "Sonora",
      "latitude": 31.3341,
      "longitude": -109.5454,
      "crossing_type": "land",
      "timezone": "America/Phoenix"
    },
    {
      "cbp_port_id": "260305",
      "name_en": "Naco",
      "name_es": "Naco",
      "city_us": "Naco",
      "city_mx": "Naco",
      "state_us": "AZ",
      "state_mx": "Sonora",
      "latitude": 31.3355,
      "longitude": -109.9479,
      "crossing_type": "land",
      "timezone": "America/Phoenix"
    },
    {
      "cbp_port_id": "260201",
      "name_en": "Lukeville",
      "name_es": "Lukeville",
      "city_us": "Lukeville",
      "city_mx": "Sonoyta",
      "state_us": "AZ",
      "state_mx": "Sonora",
      "latitude": 31.8778,
      "longitude": -112.8183,
      "crossing_type": "land",
      "timezone": "America/Phoenix"
    },
    {
      "cbp_port_id": "260801",
      "name_en": "San Luis",
      "name_es": "San Luis",
      "city_us": "San Luis",
      "city_mx": "San Luis Rio Colorado",
      "state_us": "AZ",
      "state_mx": "Sonora",
      "latitude": 32.4870,
      "longitude": -114.7818,
      "crossing_type": "land",
      "timezone": "America/Phoenix"
    },
    {
      "cbp_port_id": "260802",
      "name_en": "San Luis II",
      "name_es": "San Luis II",
      "city_us": "San Luis",
      "city_mx": "San Luis Rio Colorado",
      "state_us": "AZ",
      "state_mx": "Sonora",
      "latitude": 32.4893,
      "longitude": -114.7820,
      "crossing_type": "land",
      "timezone": "America/Phoenix"
    },
    {
      "cbp_port_id": "240601",
      "name_en": "Columbus",
      "name_es": "Columbus",
      "city_us": "Columbus",
      "city_mx": "Las Palomas",
      "state_us": "NM",
      "state_mx": "Chihuahua",
      "latitude": 31.8218,
      "longitude": -107.6389,
      "crossing_type": "land",
      "timezone": "America/Denver"
    },
    {
      "cbp_port_id": "240801",
      "name_en": "Santa Teresa",
      "name_es": "Santa Teresa",
      "city_us": "Santa Teresa",
      "city_mx": "San Jeronimo",
      "state_us": "NM",
      "state_mx": "Chihuahua",
      "latitude": 31.7837,
      "longitude": -106.6890,
      "crossing_type": "land",
      "timezone": "America/Denver"
    },
    {
      "cbp_port_id": "240201",
      "name_en": "El Paso - Bridge of the Americas",
      "name_es": "El Paso - Puente de las Americas",
      "city_us": "El Paso",
      "city_mx": "Ciudad Juarez",
      "state_us": "TX",
      "state_mx": "Chihuahua",
      "latitude": 31.7558,
      "longitude": -106.4530,
      "crossing_type": "land",
      "timezone": "America/Denver"
    },
    {
      "cbp_port_id": "202401",
      "name_en": "El Paso - Paso Del Norte",
      "name_es": "El Paso - Paso Del Norte",
      "city_us": "El Paso",
      "city_mx": "Ciudad Juarez",
      "state_us": "TX",
      "state_mx": "Chihuahua",
      "latitude": 31.7617,
      "longitude": -106.4432,
      "crossing_type": "land",
      "timezone": "America/Denver"
    },
    {
      "cbp_port_id": "240203",
      "name_en": "El Paso - Ysleta-Zaragoza",
      "name_es": "El Paso - Ysleta-Zaragoza",
      "city_us": "El Paso",
      "city_mx": "Ciudad Juarez",
      "state_us": "TX",
      "state_mx": "Chihuahua",
      "latitude": 31.6638,
      "longitude": -106.3780,
      "crossing_type": "land",
      "timezone": "America/Denver"
    },
    {
      "cbp_port_id": "240401",
      "name_en": "Tornillo - Marcelino Serna",
      "name_es": "Tornillo - Marcelino Serna",
      "city_us": "Tornillo",
      "city_mx": "Guadalupe",
      "state_us": "TX",
      "state_mx": "Chihuahua",
      "latitude": 31.4450,
      "longitude": -106.0867,
      "crossing_type": "land",
      "timezone": "America/Denver"
    },
    {
      "cbp_port_id": "240301",
      "name_en": "Presidio",
      "name_es": "Presidio",
      "city_us": "Presidio",
      "city_mx": "Ojinaga",
      "state_us": "TX",
      "state_mx": "Chihuahua",
      "latitude": 29.5608,
      "longitude": -104.3691,
      "crossing_type": "land",
      "timezone": "America/Chicago"
    },
    {
      "cbp_port_id": "230201",
      "name_en": "Del Rio",
      "name_es": "Del Rio",
      "city_us": "Del Rio",
      "city_mx": "Ciudad Acuna",
      "state_us": "TX",
      "state_mx": "Coahuila",
      "latitude": 29.3706,
      "longitude": -100.9237,
      "crossing_type": "land",
      "timezone": "America/Chicago"
    },
    {
      "cbp_port_id": "230301",
      "name_en": "Eagle Pass",
      "name_es": "Eagle Pass",
      "city_us": "Eagle Pass",
      "city_mx": "Piedras Negras",
      "state_us": "TX",
      "state_mx": "Coahuila",
      "latitude": 28.7091,
      "longitude": -100.4995,
      "crossing_type": "land",
      "timezone": "America/Chicago"
    },
    {
      "cbp_port_id": "230302",
      "name_en": "Eagle Pass Bridge II",
      "name_es": "Eagle Pass Puente II",
      "city_us": "Eagle Pass",
      "city_mx": "Piedras Negras",
      "state_us": "TX",
      "state_mx": "Coahuila",
      "latitude": 28.7050,
      "longitude": -100.4960,
      "crossing_type": "land",
      "timezone": "America/Chicago"
    },
    {
      "cbp_port_id": "230103",
      "name_en": "Laredo - Gateway to the Americas",
      "name_es": "Laredo - Puerta de las Americas",
      "city_us": "Laredo",
      "city_mx": "Nuevo Laredo",
      "state_us": "TX",
      "state_mx": "Tamaulipas",
      "latitude": 27.5010,
      "longitude": -99.5070,
      "crossing_type": "land",
      "timezone": "America/Chicago"
    },
    {
      "cbp_port_id": "230401",
      "name_en": "Laredo - Convent Avenue",
      "name_es": "Laredo - Avenida Convento",
      "city_us": "Laredo",
      "city_mx": "Nuevo Laredo",
      "state_us": "TX",
      "state_mx": "Tamaulipas",
      "latitude": 27.5059,
      "longitude": -99.5067,
      "crossing_type": "land",
      "timezone": "America/Chicago"
    },
    {
      "cbp_port_id": "230402",
      "name_en": "Laredo - Juarez-Lincoln Bridge",
      "name_es": "Laredo - Puente Juarez-Lincoln",
      "city_us": "Laredo",
      "city_mx": "Nuevo Laredo",
      "state_us": "TX",
      "state_mx": "Tamaulipas",
      "latitude": 27.5020,
      "longitude": -99.5050,
      "crossing_type": "land",
      "timezone": "America/Chicago"
    },
    {
      "cbp_port_id": "230403",
      "name_en": "Laredo - Colombia Solidarity",
      "name_es": "Laredo - Colombia Solidaridad",
      "city_us": "Laredo",
      "city_mx": "Colombia",
      "state_us": "TX",
      "state_mx": "Nuevo Leon",
      "latitude": 27.1647,
      "longitude": -99.5903,
      "crossing_type": "land",
      "timezone": "America/Chicago"
    },
    {
      "cbp_port_id": "230404",
      "name_en": "Laredo - World Trade Bridge",
      "name_es": "Laredo - Puente de Comercio Mundial",
      "city_us": "Laredo",
      "city_mx": "Nuevo Laredo",
      "state_us": "TX",
      "state_mx": "Tamaulipas",
      "latitude": 27.4960,
      "longitude": -99.5167,
      "crossing_type": "land",
      "timezone": "America/Chicago"
    },
    {
      "cbp_port_id": "230501",
      "name_en": "Hidalgo",
      "name_es": "Hidalgo",
      "city_us": "Hidalgo",
      "city_mx": "Reynosa",
      "state_us": "TX",
      "state_mx": "Tamaulipas",
      "latitude": 26.0992,
      "longitude": -98.2620,
      "crossing_type": "land",
      "timezone": "America/Chicago"
    },
    {
      "cbp_port_id": "230502",
      "name_en": "Anzalduas",
      "name_es": "Anzalduas",
      "city_us": "Mission",
      "city_mx": "Reynosa",
      "state_us": "TX",
      "state_mx": "Tamaulipas",
      "latitude": 26.1404,
      "longitude": -98.3247,
      "crossing_type": "land",
      "timezone": "America/Chicago"
    },
    {
      "cbp_port_id": "230503",
      "name_en": "Pharr",
      "name_es": "Pharr",
      "city_us": "Pharr",
      "city_mx": "Reynosa",
      "state_us": "TX",
      "state_mx": "Tamaulipas",
      "latitude": 26.1595,
      "longitude": -98.1855,
      "crossing_type": "land",
      "timezone": "America/Chicago"
    },
    {
      "cbp_port_id": "230701",
      "name_en": "Rio Grande City",
      "name_es": "Rio Grande City",
      "city_us": "Rio Grande City",
      "city_mx": "Camargo",
      "state_us": "TX",
      "state_mx": "Tamaulipas",
      "latitude": 26.3804,
      "longitude": -98.8227,
      "crossing_type": "land",
      "timezone": "America/Chicago"
    },
    {
      "cbp_port_id": "231001",
      "name_en": "Roma",
      "name_es": "Roma",
      "city_us": "Roma",
      "city_mx": "Ciudad Miguel Aleman",
      "state_us": "TX",
      "state_mx": "Tamaulipas",
      "latitude": 26.4052,
      "longitude": -99.0162,
      "crossing_type": "land",
      "timezone": "America/Chicago"
    },
    {
      "cbp_port_id": "230901",
      "name_en": "Progreso",
      "name_es": "Progreso",
      "city_us": "Progreso",
      "city_mx": "Nuevo Progreso",
      "state_us": "TX",
      "state_mx": "Tamaulipas",
      "latitude": 26.0684,
      "longitude": -97.9553,
      "crossing_type": "land",
      "timezone": "America/Chicago"
    },
    {
      "cbp_port_id": "535501",
      "name_en": "Brownsville - Gateway International",
      "name_es": "Brownsville - Puente Internacional Gateway",
      "city_us": "Brownsville",
      "city_mx": "Matamoros",
      "state_us": "TX",
      "state_mx": "Tamaulipas",
      "latitude": 25.9032,
      "longitude": -97.4966,
      "crossing_type": "land",
      "timezone": "America/Chicago"
    },
    {
      "cbp_port_id": "535504",
      "name_en": "Brownsville - Veterans International",
      "name_es": "Brownsville - Puente Internacional Veterans",
      "city_us": "Brownsville",
      "city_mx": "Matamoros",
      "state_us": "TX",
      "state_mx": "Tamaulipas",
      "latitude": 25.9520,
      "longitude": -97.4870,
      "crossing_type": "land",
      "timezone": "America/Chicago"
    }
  ]
}
