{
  "lane_types": [
    {
      "code": "standard_vehicle",
      "name_en": "Standard Vehicles",
      "name_es": "Vehiculos Estandar"
    },
    {
      "code": "sentri",
      "name_en": "SENTRI",
      "name_es": "SENTRI"
    },
    {
      "code": "ready_lane",
      "name_en": "Ready Lane",
      "name_es": "Ready Lane"
    },
    {
      "code": "pedestrian",
      "name_en": "Pedestrian",
      "name_es": "Peatonal"
    },
    {
      "code": "pedestrian_ready",
      "name_en": "Pedestrian Ready Lane",
      "name_es": "Peatonal Ready Lane"
    },
    {
      "code": "commercial",
      "name_en": "Commercial / Trucks",
      "name_es": "Comercial / Camiones"
    }
  ],
  "port_id_migrations": {},
  "ports": [
    {
      "cbp_port_id": "250401",
      "name_en": "San Ysidro",
      "name_es": "San Ysidro",
      "city_us": "San Diego",
      "city_mx": "Tijuana",
      "state_us": "CA",
      "state_mx": "Baja California",
      "latitude": 32.54333,
      "longitude": -117.02972,
      "crossing_type": "land",
      "timezone": "America/Tijuana"
    },
    {
      "cbp_port_id": "250601",
      "name_en": "Otay Mesa",
      "name_es": "Otay Mesa",
      "city_us": "San Diego",
      "city_mx": "Tijuana",
      "state_us": "CA",
      "state_mx": "Baja California",
      "latitude": 32.550602,
      "longitude": -116.938187,
      "crossing_type": "land",
      "timezone": "America/Tijuana"
    },
    {
      "cbp_port_id": "250608",
      "name_en": "Otay Mesa East",
      "name_es": "Otay Mesa Este",
      "city_us": "San Diego",
      "city_mx": "Tijuana",
      "state_us": "CA",
      "state_mx": "Baja California",
      "latitude": 32.541,
      "longitude": -116.917,
      "crossing_type": "land",
      "timezone": "America/Tijuana"
    },
    {
      "cbp_port_id": "250301",
      "name_en": "Calexico West",
      "name_es": "Calexico Oeste",
      "city_us": "Calexico",
      "city_mx": "Mexicali",
      "state_us": "CA",
      "state_mx": "Baja California",
      "latitude": 32.665106,
      "longitude": -115.496349,
      "crossing_type": "land",
      "timezone": "America/Tijuana"
    },
    {
      "cbp_port_id": "250302",
      "name_en": "Calexico East",
      "name_es": "Calexico Este",
      "city_us": "Calexico",
      "city_mx": "Mexicali",
      "state_us": "CA",
      "state_mx": "Baja California",
      "latitude": 32.675506,
      "longitude": -115.388675,
      "crossing_type": "land",
      "timezone": "America/Tijuana"
    },
    {
      "cbp_port_id": "250501",
      "name_en": "Tecate",
      "name_es": "Tecate",
      "city_us": "Tecate",
      "city_mx": "Tecate",
      "state_us": "CA",
      "state_mx": "Baja California",
      "latitude": 32.576852,
      "longitude": -116.627179,
      "crossing_type": "land",
      "timezone": "America/Tijuana"
    },
    {
      "cbp_port_id": "250201",
      "name_en": "Andrade",
      "name_es": "Andrade",
      "city_us": "Andrade",
      "city_mx": "Los Algodones",
      "state_us": "CA",
      "state_mx": "Baja California",
      "latitude": 32.7187,
      "longitude": -114.7277,
      "crossing_type": "land",
      "timezone": "America/Tijuana"
    },
    {
      "cbp_port_id": "250101",
      "name_en": "Cross Border Xpress (CBX)",
      "name_es": "Cross Border Xpress (CBX)",
      "city_us": "San Diego",
      "city_mx": "Tijuana",
      "state_us": "CA",
      "state_mx": "Baja California",
      "latitude": 32.548208,
      "longitude": -116.974556,
      "crossing_type": "pedestrian_bridge",
      "timezone": "America/Tijuana"
    },
    {
      "cbp_port_id": "260401",
      "name_en": "Nogales DeConcini",
      "name_es": "Nogales DeConcini",
      "city_us": "Nogales",
      "city_mx": "Nogales",
      "state_us": "AZ",
      "state_mx": "Sonora",
      "latitude": 31.332806,
      "longitude": -110.942722,
      "crossing_type": "land",
      "timezone": "America/Phoenix"
    },
    {
      "cbp_port_id": "260402",
      "name_en": "Nogales Mariposa",
      "name_es": "Nogales Mariposa",
      "city_us": "Nogales",
      "city_mx": "Nogales",
      "state_us": "AZ",
      "state_mx": "Sonora",
      "latitude": 31.3339,
      "longitude": -110.965594,
      "crossing_type": "land",
      "timezone": "America/Phoenix"
    },
    {
      "cbp_port_id": "260403",
      "name_en": "Nogales Grand Avenue",
      "name_es": "Nogales Grand Avenue",
      "city_us": "Nogales",
      "city_mx": "Nogales",
      "state_us": "AZ",
      "state_mx": "Sonora",
      "latitude": 31.332806,
      "longitude": -110.942722,
      "crossing_type": "land",
      "timezone": "America/Phoenix"
    },
    {
      "cbp_port_id": "260101",
      "name_en": "Douglas",
      "name_es": "Douglas",
      "city_us": "Douglas",
      "city_mx": "Agua Prieta",
      "state_us": "AZ",
      "state_mx": "Sonora",
      "latitude": 31.334679,
      "longitude": -109.560374,
      "crossing_type": "land",
      "timezone": "America/Phoenix"
    },
    {
      "cbp_port_id": "260305",
      "name_en": "Naco",
      "name_es": "Naco",
      "city_us": "Naco",
      "city_mx": "Naco",
      "state_us": "AZ",
      "state_mx": "Sonora",
      "latitude": 31.334559,
      "longitude": -109.947967,
      "crossing_type": "land",
      "timezone": "America/Phoenix"
    },
    {
      "cbp_port_id": "260201",
      "name_en": "Lukeville",
      "name_es": "Lukeville",
      "city_us": "Lukeville",
      "city_mx": "Sonoyta",
      "state_us": "AZ",
      "state_mx": "Sonora",
      "latitude": 31.880423,
      "longitude": -112.816919,
      "crossing_type": "land",
      "timezone": "America/Phoenix"
    },
    {
      "cbp_port_id": "260801",
      "name_en": "San Luis",
      "name_es": "San Luis",
      "city_us": "San Luis",
      "city_mx": "San Luis Rio Colorado",
      "state_us": "AZ",
      "state_mx": "Sonora",
      "latitude": 32.485339,
      "longitude": -114.78212,
      "crossing_type": "land",
      "timezone": "America/Phoenix"
    },
    {
      "cbp_port_id": "260802",
      "name_en": "San Luis II",
      "name_es": "San Luis II",
      "city_us": "San Luis",
      "city_mx": "San Luis Rio Colorado",
      "state_us": "AZ",
      "state_mx": "Sonora",
      "latitude": 32.4617,
      "longitude": -114.6988,
      "crossing_type": "land",
      "timezone": "America/Phoenix"
    },
    {
      "cbp_port_id": "240601",
      "name_en": "Columbus",
      "name_es": "Columbus",
      "city_us": "Columbus",
      "city_mx": "Las Palomas",
      "state_us": "NM",
      "state_mx": "Chihuahua",
      "latitude": 31.784399,
      "longitude": -107.627622,
      "crossing_type": "land",
      "timezone": "America/Denver"
    },
    {
      "cbp_port_id": "240801",
      "name_en": "Santa Teresa",
      "name_es": "Santa Teresa",
      "city_us": "Santa Teresa",
      "city_mx": "San Jeronimo",
      "state_us": "NM",
      "state_mx": "Chihuahua",
      "latitude": 31.785877,
      "longitude": -106.680315,
      "crossing_type": "land",
      "timezone": "America/Denver"
    },
    {
      "cbp_port_id": "240201",
      "name_en": "El Paso - Bridge of the Americas",
      "name_es": "El Paso - Puente de las Americas",
      "city_us": "El Paso",
      "city_mx": "Ciudad Juarez",
      "state_us": "TX",
      "state_mx": "Chihuahua",
      "latitude": 31.767261,
      "longitude": -106.450932,
      "crossing_type": "land",
      "timezone": "America/Denver"
    },
    {
      "cbp_port_id": "202401",
      "name_en": "El Paso - Paso Del Norte",
      "name_es": "El Paso - Paso Del Norte",
      "city_us": "El Paso",
      "city_mx": "Ciudad Juarez",
      "state_us": "TX",
      "state_mx": "Chihuahua",
      "latitude": 31.749929,
      "longitude": -106.486691,
      "crossing_type": "land",
      "timezone": "America/Denver"
    },
    {
      "cbp_port_id": "240203",
      "name_en": "El Paso - Ysleta-Zaragoza",
      "name_es": "El Paso - Ysleta-Zaragoza",
      "city_us": "El Paso",
      "city_mx": "Ciudad Juarez",
      "state_us": "TX",
      "state_mx": "Chihuahua",
      "latitude": 31.6711,
      "longitude": -106.338,
      "crossing_type": "land",
      "timezone": "America/Denver"
    },
    {
      "cbp_port_id": "240401",
      "name_en": "Tornillo - Marcelino Serna",
      "name_es": "Tornillo - Marcelino Serna",
      "city_us": "Tornillo",
      "city_mx": "Guadalupe",
      "state_us": "TX",
      "state_mx": "Chihuahua",
      "latitude": 31.43278,
      "longitude": -106.148058,
      "crossing_type": "land",
      "timezone": "America/Denver"
    },
    {
      "cbp_port_id": "240301",
      "name_en": "Presidio",
      "name_es": "Presidio",
      "city_us": "Presidio",
      "city_mx": "Ojinaga",
      "state_us": "TX",
      "state_mx": "Chihuahua",
      "latitude": 29.56,
      "longitude": -104.396,
      "crossing_type": "land",
      "timezone": "America/Chicago"
    },
    {
      "cbp_port_id": "230201",
      "name_en": "Del Rio",
      "name_es": "Del Rio",
      "city_us": "Del Rio",
      "city_mx": "Ciudad Acuna",
      "state_us": "TX",
      "state_mx": "Coahuila",
      "latitude": 29.326756,
      "longitude": -100.927514,
      "crossing_type": "land",
      "timezone": "America/Chicago"
    },
    {
      "cbp_port_id": "230301",
      "name_en": "Eagle Pass",
      "name_es": "Eagle Pass",
      "city_us": "Eagle Pass",
      "city_mx": "Piedras Negras",
      "state_us": "TX",
      "state_mx": "Coahuila",
      "latitude": 28.705779,
      "longitude": -100.506594,
      "crossing_type": "land",
      "timezone": "America/Chicago"
    },
    {
      "cbp_port_id": "230302",
      "name_en": "Eagle Pass Bridge II",
      "name_es": "Eagle Pass Puente II",
      "city_us": "Eagle Pass",
      "city_mx": "Piedras Negras",
      "state_us": "TX",
      "state_mx": "Coahuila",
      "latitude": 28.698328,
      "longitude": -100.506411,
      "crossing_type": "land",
      "timezone": "America/Chicago"
    },
    {
      "cbp_port_id": "230103",
      "name_en": "Laredo - Gateway to the Americas",
      "name_es": "Laredo - Puerta de las Americas",
      "city_us": "Laredo",
      "city_mx": "Nuevo Laredo",
      "state_us": "TX",
      "state_mx": "Tamaulipas",
      "latitude": 27.499,
      "longitude": -99.507,
      "crossing_type": "land",
      "timezone": "America/Chicago"
    },
    {
      "cbp_port_id": "230401",
      "name_en": "Laredo - Convent Avenue",
      "name_es": "Laredo - Avenida Convento",
      "city_us": "Laredo",
      "city_mx": "Nuevo Laredo",
      "state_us": "TX",
      "state_mx": "Tamaulipas",
      "latitude": 27.501415,
      "longitude": -99.507385,
      "crossing_type": "land",
      "timezone": "America/Chicago"
    },
    {
      "cbp_port_id": "230402",
      "name_en": "Laredo - Juarez-Lincoln Bridge",
      "name_es": "Laredo - Puente Juarez-Lincoln",
      "city_us": "Laredo",
      "city_mx": "Nuevo Laredo",
      "state_us": "TX",
      "state_mx": "Tamaulipas",
      "latitude": 27.500216,
      "longitude": -99.502814,
      "crossing_type": "land",
      "timezone": "America/Chicago"
    },
    {
      "cbp_port_id": "230403",
      "name_en": "Laredo - Colombia Solidarity",
      "name_es": "Laredo - Colombia Solidaridad",
      "city_us": "Laredo",
      "city_mx": "Colombia",
      "state_us": "TX",
      "state_mx": "Nuevo Leon",
      "latitude": 27.701502,
      "longitude": -99.74262,
      "crossing_type": "land",
      "timezone": "America/Chicago"
    },
    {
      "cbp_port_id": "230404",
      "name_en": "Laredo - World Trade Bridge",
      "name_es": "Laredo - Puente de Comercio Mundial",
      "city_us": "Laredo",
      "city_mx": "Nuevo Laredo",
      "state_us": "TX",
      "state_mx": "Tamaulipas",
      "latitude": 27.598977,
      "longitude": -99.528666,
      "crossing_type": "land",
      "timezone": "America/Chicago"
    },
    {
      "cbp_port_id": "230501",
      "name_en": "Hidalgo",
      "name_es": "Hidalgo",
      "city_us": "Hidalgo",
      "city_mx": "Reynosa",
      "state_us": "TX",
      "state_mx": "Tamaulipas",
      "latitude": 26.096867,
      "longitude": -98.269964,
      "crossing_type": "land",
      "timezone": "America/Chicago"
    },
    {
      "cbp_port_id": "230502",
      "name_en": "Anzalduas",
      "name_es": "Anzalduas",
      "city_us": "Mission",
      "city_mx": "Reynosa",
      "state_us": "TX",
      "state_mx": "Tamaulipas",
      "latitude": 26.145229,
      "longitude": -98.312069,
      "crossing_type": "land",
      "timezone": "America/Chicago"
    },
    {
      "cbp_port_id": "230503",
      "name_en": "Pharr",
      "name_es": "Pharr",
      "city_us": "Pharr",
      "city_mx": "Reynosa",
      "state_us": "TX",
      "state_mx": "Tamaulipas",
      "latitude": 26.088436,
      "longitude": -98.200859,
      "crossing_type": "land",
      "timezone": "America/Chicago"
    },
    {
      "cbp_port_id": "230701",
      "name_en": "Rio Grande City",
      "name_es": "Rio Grande City",
      "city_us": "Rio Grande City",
      "city_mx": "Camargo",
      "state_us": "TX",
      "state_mx": "Tamaulipas",
      "latitude": 26.366961,
      "longitude": -98.801336,
      "crossing_type": "land",
      "timezone": "America/Chicago"
    },
    {
      "cbp_port_id": "231001",
      "name_en": "Roma",
      "name_es": "Roma",
      "city_us": "Roma",
      "city_mx": "Ciudad Miguel Aleman",
      "state_us": "TX",
      "state_mx": "Tamaulipas",
      "latitude": 26.404209,
      "longitude": -99.017125,
      "crossing_type": "land",
      "timezone": "America/Chicago"
    },
    {
      "cbp_port_id": "230901",
      "name_en": "Progreso",
      "name_es": "Progreso",
      "city_us": "Progreso",
      "city_mx": "Nuevo Progreso",
      "state_us": "TX",
      "state_mx": "Tamaulipas",
      "latitude": 26.063318,
      "longitude": -97.949821,
      "crossing_type": "land",
      "timezone": "America/Chicago"
    },
    {
      "cbp_port_id": "535501",
      "name_en": "Brownsville - Gateway International",
      "name_es": "Brownsville - Puente Internacional Gateway",
      "city_us": "Brownsville",
      "city_mx": "Matamoros",
      "state_us": "TX",
      "state_mx": "Tamaulipas",
      "latitude": 25.899143,
      "longitude": -97.496978,
      "crossing_type": "land",
      "timezone": "America/Chicago"
    },
    {
      "cbp_port_id": "535504",
      "name_en": "Brownsville - Veterans International",
      "name_es": "Brownsville - Puente Internacional Veterans",
      "city_us": "Brownsville",
      "city_mx": "Matamoros",
      "state_us": "TX",
      "state_mx": "Tamaulipas",
      "latitude": 25.889014,
      "longitude": -97.475746,
      "crossing_type": "land",
      "timezone": "America/Chicago"
    }
  ]
}