{
  "lane_types": [
    {"code": "standard_vehicle", "name_en": "Standard Vehicles", "name_es": "Vehículos Estándar"},
    {"code": "sentri", "name_en": "SENTRI", "name_es": "SENTRI"},
    {"code": "ready_lane", "name_en": "Ready Lane", "name_es": "Ready Lane"},
    {"code": "pedestrian", "name_en": "Pedestrian", "name_es": "Peatonal"},
    {"code": "commercial", "name_en": "Commercial / Trucks", "name_es": "Comercial / Camiones"}
  ],
  "ports": [
    {
      "cbp_port_id": "250401",
      "name_en": "San Ysidro",
      "name_es": "San Ysidro",
      "city_us": "San Diego",
      "city_mx": "Tijuana",
      "state_us": "CA",
      "state_mx": "Baja California",
      "latitude": 32.5422,
      "longitude": -117.0292,
      "crossing_type": "land",
      "timezone": "America/Tijuana"
    },
    {
      "cbp_port_id": "250601",
      "name_en": "Otay Mesa",
      "name_es": "Otay Mesa",
      "city_us": "San Diego",
      "city_mx": "Tijuana",
      "state_us": "CA",
      "state_mx": "Baja California",
      "latitude": 32.5521,
      "longitude": -116.9389,
      "crossing_type": "land",
      "timezone": "America/Tijuana"
    },
    {
      "cbp_port_id": "250301",
      "name_en": "Calexico West",
      "name_es": "Calexico Oeste",
      "city_us": "Calexico",
      "city_mx": "Mexicali",
      "state_us": "CA",
      "state_mx": "Baja California",
      "latitude": 32.6654,
      "longitude": -115.4988,
      "crossing_type": "land",
      "timezone": "America/Tijuana"
    },
    {
      "cbp_port_id": "250302",
      "name_en": "Calexico East",
      "name_es": "Calexico Este",
      "city_us": "Calexico",
      "city_mx": "Mexicali",
      "state_us": "CA",
      "state_mx": "Baja California",
      "latitude": 32.6720,
      "longitude": -115.4170,
      "crossing_type": "land",
      "timezone": "America/Tijuana"
    },
    {
      "cbp_port_id": "250201",
      "name_en": "Tecate",
      "name_es": "Tecate",
      "city_us": "Tecate",
      "city_mx": "Tecate",
      "state_us": "CA",
      "state_mx": "Baja California",
      "latitude": 32.5729,
      "longitude": -116.6266,
      "crossing_type": "land",
      "timezone": "America/Tijuana"
    },
    {
      "cbp_port_id": "260401",
      "name_en": "Nogales DeConcini",
      "name_es": "Nogales DeConcini",
      "city_us": "Nogales",
      "city_mx": "Nogales",
      "state_us": "AZ",
      "state_mx": "Sonora",
      "latitude": 31.3325,
      "longitude": -110.9420,
      "crossing_type": "land",
      "timezone": "America/Phoenix"
    },
    {
      "cbp_port_id": "260402",
      "name_en": "Nogales Mariposa",
      "name_es": "Nogales Mariposa",
      "city_us": "Nogales",
      "city_mx": "Nogales",
      "state_us": "AZ",
      "state_mx": "Sonora",
      "latitude": 31.3505,
      "longitude": -110.9693,
      "crossing_type": "land",
      "timezone": "America/Phoenix"
    },
    {
      "cbp_port_id": "260301",
      "name_en": "Douglas",
      "name_es": "Douglas",
      "city_us": "Douglas",
      "city_mx": "Agua Prieta",
      "state_us": "AZ",
      "state_mx": "Sonora",
      "latitude": 31.3341,
      "longitude": -109.5454,
      "crossing_type": "land",
      "timezone": "America/Phoenix"
    },
    {
      "cbp_port_id": "260201",
      "name_en": "Lukeville",
      "name_es": "Lukeville",
      "city_us": "Lukeville",
      "city_mx": "Sonoyta",
      "state_us": "AZ",
      "state_mx": "Sonora",
      "latitude": 31.8778,
      "longitude": -112.8183,
      "crossing_type": "land",
      "timezone": "America/Phoenix"
    },
    {
      "cbp_port_id": "260101",
      "name_en": "San Luis",
      "name_es": "San Luis",
      "city_us": "San Luis",
      "city_mx": "San Luis Río Colorado",
      "state_us": "AZ",
      "state_mx": "Sonora",
      "latitude": 32.4870,
      "longitude": -114.7818,
      "crossing_type": "land",
      "timezone": "America/Phoenix"
    },
    {
      "cbp_port_id": "240101",
      "name_en": "El Paso - Bridge of the Americas",
      "name_es": "El Paso - Puente de las Américas",
      "city_us": "El Paso",
      "city_mx": "Ciudad Juárez",
      "state_us": "TX",
      "state_mx": "Chihuahua",
      "latitude": 31.7558,
      "longitude": -106.4530,
      "crossing_type": "land",
      "timezone": "America/Denver"
    },
    {
      "cbp_port_id": "240102",
      "name_en": "El Paso - Stanton Street",
      "name_es": "El Paso - Calle Stanton",
      "city_us": "El Paso",
      "city_mx": "Ciudad Juárez",
      "state_us": "TX",
      "state_mx": "Chihuahua",
      "latitude": 31.7584,
      "longitude": -106.4456,
      "crossing_type": "land",
      "timezone": "America/Denver"
    },
    {
      "cbp_port_id": "240103",
      "name_en": "El Paso - Ysleta-Zaragoza",
      "name_es": "El Paso - Ysleta-Zaragoza",
      "city_us": "El Paso",
      "city_mx": "Ciudad Juárez",
      "state_us": "TX",
      "state_mx": "Chihuahua",
      "latitude": 31.6638,
      "longitude": -106.3780,
      "crossing_type": "land",
      "timezone": "America/Denver"
    },
    {
      "cbp_port_id": "230601",
      "name_en": "Laredo - World Trade Bridge",
      "name_es": "Laredo - Puente de Comercio Mundial",
      "city_us": "Laredo",
      "city_mx": "Nuevo Laredo",
      "state_us": "TX",
      "state_mx": "Tamaulipas",
      "latitude": 27.4960,
      "longitude": -99.5167,
      "crossing_type": "land",
      "timezone": "America/Chicago"
    },
    {
      "cbp_port_id": "230201",
      "name_en": "Laredo - Gateway to the Americas",
      "name_es": "Laredo - Puerta de las Américas",
      "city_us": "Laredo",
      "city_mx": "Nuevo Laredo",
      "state_us": "TX",
      "state_mx": "Tamaulipas",
      "latitude": 27.5010,
      "longitude": -99.5070,
      "crossing_type": "land",
      "timezone": "America/Chicago"
    },
    {
      "cbp_port_id": "230401",
      "name_en": "Hidalgo",
      "name_es": "Hidalgo",
      "city_us": "Hidalgo",
      "city_mx": "Reynosa",
      "state_us": "TX",
      "state_mx": "Tamaulipas",
      "latitude": 26.0992,
      "longitude": -98.2620,
      "crossing_type": "land",
      "timezone": "America/Chicago"
    },
    {
      "cbp_port_id": "230301",
      "name_en": "Brownsville - Gateway International",
      "name_es": "Brownsville - Puente Internacional Gateway",
      "city_us": "Brownsville",
      "city_mx": "Matamoros",
      "state_us": "TX",
      "state_mx": "Tamaulipas",
      "latitude": 25.9032,
      "longitude": -97.4966,
      "crossing_type": "land",
      "timezone": "America/Chicago"
    },
    {
      "cbp_port_id": "230302",
      "name_en": "Brownsville - Veterans International",
      "name_es": "Brownsville - Puente Internacional Veterans",
      "city_us": "Brownsville",
      "city_mx": "Matamoros",
      "state_us": "TX",
      "state_mx": "Tamaulipas",
      "latitude": 25.9520,
      "longitude": -97.4870,
      "crossing_type": "land",
      "timezone": "America/Chicago"
    },
    {
      "cbp_port_id": "230501",
      "name_en": "Eagle Pass",
      "name_es": "Eagle Pass",
      "city_us": "Eagle Pass",
      "city_mx": "Piedras Negras",
      "state_us": "TX",
      "state_mx": "Coahuila",
      "latitude": 28.7091,
      "longitude": -100.4995,
      "crossing_type": "land",
      "timezone": "America/Chicago"
    },
    {
      "cbp_port_id": "230101",
      "name_en": "Del Rio",
      "name_es": "Del Rio",
      "city_us": "Del Rio",
      "city_mx": "Ciudad Acuña",
      "state_us": "TX",
      "state_mx": "Coahuila",
      "latitude": 29.3706,
      "longitude": -100.9237,
      "crossing_type": "land",
      "timezone": "America/Chicago"
    },
    {
      "cbp_port_id": "230701",
      "name_en": "Presidio",
      "name_es": "Presidio",
      "city_us": "Presidio",
      "city_mx": "Ojinaga",
      "state_us": "TX",
      "state_mx": "Chihuahua",
      "latitude": 29.5608,
      "longitude": -104.3691,
      "crossing_type": "land",
      "timezone": "America/Chicago"
    },
    {
      "cbp_port_id": "250501",
      "name_en": "Andrade",
      "name_es": "Andrade",
      "city_us": "Andrade",
      "city_mx": "Los Algodones",
      "state_us": "CA",
      "state_mx": "Baja California",
      "latitude": 32.7193,
      "longitude": -114.7267,
      "crossing_type": "land",
      "timezone": "America/Tijuana"
    },
    {
      "cbp_port_id": "250101",
      "name_en": "Cross Border Xpress (CBX)",
      "name_es": "Cross Border Xpress (CBX)",
      "city_us": "San Diego",
      "city_mx": "Tijuana",
      "state_us": "CA",
      "state_mx": "Baja California",
      "latitude": 32.5412,
      "longitude": -116.9804,
      "crossing_type": "pedestrian_bridge",
      "timezone": "America/Tijuana"
    }
  ]
}
